[
  {
    "id": 0,
    "departamento": "Amazonas",
    "ciudades": [
      {"nombre": "Leticia", "lat": -4.215, "lng": -69.940},
      {"nombre": "Puerto Nariño", "lat": -3.770, "lng": -70.383}
    ]
  },
  {
  "id": 1,
  "departamento": "Antioquia",
  "ciudades": [
    {"nombre": "Giraldo", "lat": 6.681, "lng": -75.952},
    {"nombre": "Girardota", "lat": 6.378, "lng": -75.449},
    {"nombre": "Gómez Plata", "lat": 6.683, "lng": -75.220},
    {"nombre": "Granada", "lat": 6.141, "lng": -75.187},
    {"nombre": "Guadalupe", "lat": 6.816, "lng": -75.240},
    {"nombre": "Guarne", "lat": 6.278, "lng": -75.443},
    {"nombre": "Guatapé", "lat": 6.234, "lng": -75.163},
    {"nombre": "Heliconia", "lat": 6.210, "lng": -75.733},
    {"nombre": "Hispania", "lat": 5.799, "lng": -75.908},
    {"nombre": "Itagüí", "lat": 6.169, "lng": -75.612},
    {"nombre": "Ituango", "lat": 7.171, "lng": -75.764},
    {"nombre": "Jardín", "lat": 5.599, "lng": -75.817},
    {"nombre": "Jericó", "lat": 5.792, "lng": -75.786},
    {"nombre": "La Ceja", "lat": 6.032, "lng": -75.431},
    {"nombre": "La Estrella", "lat": 6.158, "lng": -75.645},
    {"nombre": "La Pintada", "lat": 5.749, "lng": -75.605},
    {"nombre": "La Unión", "lat": 5.974, "lng": -75.361},
    {"nombre": "Liborina", "lat": 6.678, "lng": -75.812},
    {"nombre": "Maceo", "lat": 6.554, "lng": -74.789},
    {"nombre": "Marinilla", "lat": 6.173, "lng": -75.337},
    {"nombre": "Medellín", "lat": 6.251, "lng": -75.565},
    {"nombre": "Montebello", "lat": 5.946, "lng": -75.527},
    {"nombre": "Murindó", "lat": 6.983, "lng": -76.817},
    {"nombre": "Mutatá", "lat": 7.247, "lng": -76.438},
    {"nombre": "Nariño", "lat": 5.606, "lng": -75.178},
    {"nombre": "Nechí", "lat": 8.094, "lng": -74.775},
    {"nombre": "Necoclí", "lat": 8.427, "lng": -76.789},
    {"nombre": "Olaya", "lat": 6.628, "lng": -75.813},
    {"nombre": "Peque", "lat": 7.022, "lng": -75.909},
    {"nombre": "Pueblorrico", "lat": 5.792, "lng": -75.840},
    {"nombre": "Puerto Berrío", "lat": 6.490, "lng": -74.406},
    {"nombre": "Puerto Nare", "lat": 6.190, "lng": -74.583},
    {"nombre": "Puerto Triunfo", "lat": 5.870, "lng": -74.650},
    {"nombre": "Remedios", "lat": 7.030, "lng": -74.694},
    {"nombre": "Rionegro", "lat": 6.155, "lng": -75.375},
    {"nombre": "Sabanalarga", "lat": 6.850, "lng": -75.817},
    {"nombre": "Sabaneta", "lat": 6.151, "lng": -75.616},
    {"nombre": "Salgar", "lat": 5.965, "lng": -75.965},
    {"nombre": "San Andrés de Cuerquia", "lat": 6.918, "lng": -75.666},
    {"nombre": "San Carlos", "lat": 6.188, "lng": -74.993},
    {"nombre": "San Francisco", "lat": 5.964, "lng": -75.100},
    {"nombre": "San Jerónimo", "lat": 6.440, "lng": -75.728},
    {"nombre": "San José de la Montaña", "lat": 6.850, "lng": -75.683},
    {"nombre": "San Juan de Urabá", "lat": 8.750, "lng": -76.530},
    {"nombre": "San Luis", "lat": 6.040, "lng": -75.000},
    {"nombre": "San Pedro de Urabá", "lat": 8.275, "lng": -76.383},
    {"nombre": "San Pedro de los Milagros", "lat": 6.459, "lng": -75.560},
    {"nombre": "San Rafael", "lat": 6.300, "lng": -75.033},
    {"nombre": "San Roque", "lat": 6.485, "lng": -75.020},
    {"nombre": "San Vicente", "lat": 6.283, "lng": -75.333},
    {"nombre": "Santa Bárbara", "lat": 5.874, "lng": -75.567},
    {"nombre": "Santa Fe de Antioquia", "lat": 6.556, "lng": -75.827},
    {"nombre": "Santa Rosa de Osos", "lat": 6.642, "lng": -75.460},
    {"nombre": "Santo Domingo", "lat": 6.472, "lng": -75.163},
    {"nombre": "Segovia", "lat": 7.084, "lng": -74.702},
    {"nombre": "Sonsón", "lat": 5.714, "lng": -75.310},
    {"nombre": "Sopetrán", "lat": 6.500, "lng": -75.750},
    {"nombre": "Támesis", "lat": 5.665, "lng": -75.710},
    {"nombre": "Tarazá", "lat": 7.584, "lng": -75.401},
    {"nombre": "Tarso", "lat": 5.867, "lng": -75.817},
    {"nombre": "Titiribí", "lat": 6.067, "lng": -75.794},
    {"nombre": "Toledo", "lat": 7.010, "lng": -75.695},
    {"nombre": "Turbo", "lat": 8.095, "lng": -76.728},
    {"nombre": "Uramita", "lat": 6.900, "lng": -76.200},
    {"nombre": "Urrao", "lat": 6.314, "lng": -76.135},
    {"nombre": "Valdivia", "lat": 7.167, "lng": -75.437},
    {"nombre": "Valparaíso", "lat": 5.617, "lng": -75.617},
    {"nombre": "Vegachí", "lat": 6.747, "lng": -74.800},
    {"nombre": "Venecia", "lat": 5.964, "lng": -75.741},
    {"nombre": "Vigía del Fuerte", "lat": 6.589, "lng": -76.898},
    {"nombre": "Yalí", "lat": 6.669, "lng": -74.835},
    {"nombre": "Yarumal", "lat": 6.963, "lng": -75.417},
    {"nombre": "Yolombó", "lat": 6.583, "lng": -75.017},
    {"nombre": "Yondó", "lat": 7.008, "lng": -73.909},
    {"nombre": "Zaragoza", "lat": 7.488, "lng": -74.870}
  ]
},
 {
  "id": 2,
  "departamento": "Arauca",
  "ciudades": [
    {"nombre": "Arauca", "lat": 7.084, "lng": -70.759},
    {"nombre": "Arauquita", "lat": 7.029, "lng": -71.428},
    {"nombre": "Cravo Norte", "lat": 6.302, "lng": -70.204},
    {"nombre": "Fortul", "lat": 6.792, "lng": -71.848},
    {"nombre": "Puerto Rondón", "lat": 6.280, "lng": -71.100},
    {"nombre": "Saravena", "lat": 6.955, "lng": -71.878},
    {"nombre": "Tame", "lat": 6.460, "lng": -71.736}
  ]
},

    {
  "id": 3,
  "departamento": "Atlántico",
  "ciudades": [
    {"nombre": "Baranoa", "lat": 10.798, "lng": -74.918},
    {"nombre": "Barranquilla", "lat": 10.963, "lng": -74.796},
    {"nombre": "Campo de la Cruz", "lat": 10.381, "lng": -74.883},
    {"nombre": "Candelaria", "lat": 10.459, "lng": -74.880},
    {"nombre": "Galapa", "lat": 10.896, "lng": -74.886},
    {"nombre": "Juan de Acosta", "lat": 10.828, "lng": -75.033},
    {"nombre": "Luruaco", "lat": 10.611, "lng": -75.146},
    {"nombre": "Malambo", "lat": 10.859, "lng": -74.773},
    {"nombre": "Manatí", "lat": 10.447, "lng": -74.959},
    {"nombre": "Palmar de Varela", "lat": 10.741, "lng": -74.754},
    {"nombre": "Piojó", "lat": 10.748, "lng": -75.107},
    {"nombre": "Polonuevo", "lat": 10.776, "lng": -74.854},
    {"nombre": "Ponedera", "lat": 10.641, "lng": -74.753},
    {"nombre": "Puerto Colombia", "lat": 11.022, "lng": -74.951},
    {"nombre": "Repelón", "lat": 10.493, "lng": -75.128},
    {"nombre": "Sabanagrande", "lat": 10.790, "lng": -74.758},
    {"nombre": "Sabanalarga", "lat": 10.631, "lng": -74.922},
    {"nombre": "Santa Lucía", "lat": 10.325, "lng": -74.958},
    {"nombre": "Santo Tomás", "lat": 10.757, "lng": -74.755},
    {"nombre": "Soledad", "lat": 10.917, "lng": -74.766},
    {"nombre": "Suán", "lat": 10.334, "lng": -74.882},
    {"nombre": "Tubará", "lat": 10.876, "lng": -75.080},
    {"nombre": "Usiacurí", "lat": 10.743, "lng": -74.981}
  ]
},

    {
  "id": 4,
  "departamento": "Bolívar",
  "ciudades": [
    {"nombre": "Achí", "lat": 8.566, "lng": -74.558},
    {"nombre": "Altos del Rosario", "lat": 8.794, "lng": -74.163},
    {"nombre": "Arenal", "lat": 8.459, "lng": -73.940},
    {"nombre": "Arjona", "lat": 10.257, "lng": -75.344},
    {"nombre": "Arroyohondo", "lat": 10.249, "lng": -75.019},
    {"nombre": "Barranco de Loba", "lat": 8.945, "lng": -74.104},
    {"nombre": "Brazuelo de Papayal", "lat": 8.951, "lng": -73.982},
    {"nombre": "Calamar", "lat": 10.250, "lng": -74.916},
    {"nombre": "Cantagallo", "lat": 7.378, "lng": -73.921},
    {"nombre": "Cartagena de Indias", "lat": 10.391, "lng": -75.479},
    {"nombre": "Cicuco", "lat": 9.273, "lng": -74.646},
    {"nombre": "Clemencia", "lat": 10.567, "lng": -75.333},
    {"nombre": "Córdoba", "lat": 9.587, "lng": -74.827},
    {"nombre": "El Carmen de Bolívar", "lat": 9.717, "lng": -75.120},
    {"nombre": "El Guamo", "lat": 10.030, "lng": -74.970},
    {"nombre": "El Peñón", "lat": 8.986, "lng": -73.945},
    {"nombre": "Hatillo de Loba", "lat": 8.956, "lng": -74.078},
    {"nombre": "Magangué", "lat": 9.242, "lng": -74.754},
    {"nombre": "Mahates", "lat": 10.232, "lng": -75.188},
    {"nombre": "Margarita", "lat": 9.154, "lng": -74.287},
    {"nombre": "María la Baja", "lat": 9.983, "lng": -75.300},
    {"nombre": "Mompós", "lat": 9.241, "lng": -74.426},
    {"nombre": "Montecristo", "lat": 8.299, "lng": -74.473},
    {"nombre": "Morales", "lat": 8.275, "lng": -73.869},
    {"nombre": "Norosí", "lat": 8.526, "lng": -74.038},
    {"nombre": "Pinillos", "lat": 8.918, "lng": -74.466},
    {"nombre": "Regidor", "lat": 8.668, "lng": -73.823},
    {"nombre": "Río Viejo", "lat": 8.589, "lng": -73.839},
    {"nombre": "San Cristóbal", "lat": 10.390, "lng": -75.064},
    {"nombre": "San Estanislao", "lat": 10.398, "lng": -75.151},
    {"nombre": "San Fernando", "lat": 9.209, "lng": -74.330},
    {"nombre": "San Jacinto del Cauca", "lat": 8.254, "lng": -74.720},
    {"nombre": "San Jacinto", "lat": 9.826, "lng": -75.121},
    {"nombre": "San Juan Nepomuceno", "lat": 9.950, "lng": -75.083},
    {"nombre": "San Martín de Loba", "lat": 8.835, "lng": -74.037},
    {"nombre": "San Pablo", "lat": 7.479, "lng": -73.918},
    {"nombre": "Santa Catalina", "lat": 10.605, "lng": -75.291},
    {"nombre": "Santa Rosa", "lat": 10.444, "lng": -75.373},
    {"nombre": "Santa Rosa del Sur", "lat": 7.965, "lng": -74.054},
    {"nombre": "Simití", "lat": 7.957, "lng": -73.945},
    {"nombre": "Soplaviento", "lat": 10.388, "lng": -75.141},
    {"nombre": "Talaigua Nuevo", "lat": 9.306, "lng": -74.565},
    {"nombre": "Tiquisio", "lat": 8.559, "lng": -74.267},
    {"nombre": "Turbaco", "lat": 10.329, "lng": -75.408},
    {"nombre": "Turbaná", "lat": 10.276, "lng": -75.442},
    {"nombre": "Villanueva", "lat": 10.444, "lng": -75.273},
    {"nombre": "Zambrano", "lat": 9.747, "lng": -74.817}
  ]
},

   {
  "id": 5,
  "departamento": "Boyacá",
  "ciudades": [
    {"nombre": "Almeida", "lat": 4.971, "lng": -73.374},
    {"nombre": "Aquitania", "lat": 5.519, "lng": -72.886},
    {"nombre": "Arcabuco", "lat": 5.757, "lng": -73.436},
    {"nombre": "Belén", "lat": 5.989, "lng": -72.912},
    {"nombre": "Berbeo", "lat": 5.233, "lng": -73.125},
    {"nombre": "Betéitiva", "lat": 6.022, "lng": -72.808},
    {"nombre": "Boavita", "lat": 6.333, "lng": -72.583},
    {"nombre": "Boyacá", "lat": 5.454, "lng": -73.362},
    {"nombre": "Briceño", "lat": 5.694, "lng": -73.916},
    {"nombre": "Buenavista", "lat": 5.511, "lng": -73.944},
    {"nombre": "Busbanzá", "lat": 5.842, "lng": -72.884},
    {"nombre": "Caldas", "lat": 5.553, "lng": -73.878},
    {"nombre": "Campohermoso", "lat": 5.030, "lng": -73.104},
    {"nombre": "Cerinza", "lat": 5.956, "lng": -72.968},
    {"nombre": "Chinavita", "lat": 5.185, "lng": -73.368},
    {"nombre": "Chiquinquirá", "lat": 5.618, "lng": -73.818},
    {"nombre": "Chíquiza", "lat": 5.605, "lng": -73.458},
    {"nombre": "Chiscas", "lat": 6.556, "lng": -72.500},
    {"nombre": "Chita", "lat": 6.190, "lng": -72.472},
    {"nombre": "Chitaraque", "lat": 6.022, "lng": -73.452},
    {"nombre": "Chivatá", "lat": 5.554, "lng": -73.283},
    {"nombre": "Chivor", "lat": 4.885, "lng": -73.368},
    {"nombre": "Ciénega", "lat": 5.399, "lng": -73.295},
    {"nombre": "Cómbita", "lat": 5.649, "lng": -73.319},
    {"nombre": "Coper", "lat": 5.351, "lng": -74.047},
    {"nombre": "Corrales", "lat": 5.830, "lng": -72.844},
    {"nombre": "Covarachía", "lat": 6.454, "lng": -72.740},
    {"nombre": "Cubará", "lat": 7.003, "lng": -72.108},
    {"nombre": "Cucaita", "lat": 5.540, "lng": -73.454},
    {"nombre": "Cuítiva", "lat": 5.582, "lng": -72.980},
    {"nombre": "Duitama", "lat": 5.826, "lng": -73.033},
    {"nombre": "El Cocuy", "lat": 6.414, "lng": -72.445},
    {"nombre": "El Espino", "lat": 6.482, "lng": -72.493},
    {"nombre": "Firavitoba", "lat": 5.669, "lng": -72.989},
    {"nombre": "Floresta", "lat": 5.922, "lng": -72.920},
    {"nombre": "Gachantivá", "lat": 5.755, "lng": -73.548},
    {"nombre": "Gámeza", "lat": 5.805, "lng": -72.804},
    {"nombre": "Garagoa", "lat": 5.083, "lng": -73.363},
    {"nombre": "Guacamayas", "lat": 6.460, "lng": -72.500},
    {"nombre": "Guateque", "lat": 5.005, "lng": -73.472},
    {"nombre": "Guayatá", "lat": 4.966, "lng": -73.487},
    {"nombre": "Güicán", "lat": 6.466, "lng": -72.416},
    {"nombre": "Iza", "lat": 5.613, "lng": -72.983},
    {"nombre": "Jenesano", "lat": 5.387, "lng": -73.366},
    {"nombre": "Jericó", "lat": 6.154, "lng": -72.567},
    {"nombre": "La Capilla", "lat": 5.114, "lng": -73.464},
    {"nombre": "La Uvita", "lat": 6.316, "lng": -72.566},
    {"nombre": "La Victoria", "lat": 5.522, "lng": -74.233},
    {"nombre": "Labranzagrande", "lat": 5.563, "lng": -72.583},
    {"nombre": "Macanal", "lat": 4.972, "lng": -73.318},
    {"nombre": "Maripí", "lat": 5.548, "lng": -74.012},
    {"nombre": "Miraflores", "lat": 5.197, "lng": -73.149},
    {"nombre": "Mongua", "lat": 5.749, "lng": -72.788},
    {"nombre": "Monguí", "lat": 5.721, "lng": -72.849},
    {"nombre": "Moniquirá", "lat": 5.877, "lng": -73.571},
    {"nombre": "Motavita", "lat": 5.578, "lng": -73.367},
    {"nombre": "Muzo", "lat": 5.535, "lng": -74.106},
    {"nombre": "Nobsa", "lat": 5.768, "lng": -72.948},
    {"nombre": "Nuevo Colón", "lat": 5.353, "lng": -73.456},
    {"nombre": "Oicatá", "lat": 5.578, "lng": -73.321},
    {"nombre": "Otanche", "lat": 5.658, "lng": -74.179},
    {"nombre": "Pachavita", "lat": 5.135, "lng": -73.428},
    {"nombre": "Páez", "lat": 5.101, "lng": -73.050},
    {"nombre": "Paipa", "lat": 5.780, "lng": -73.118},
    {"nombre": "Pajarito", "lat": 5.283, "lng": -72.699},
    {"nombre": "Panqueba", "lat": 6.416, "lng": -72.500},
    {"nombre": "Pauna", "lat": 5.633, "lng": -73.998},
    {"nombre": "Paya", "lat": 5.500, "lng": -72.400},
    {"nombre": "Paz de Río", "lat": 5.983, "lng": -72.750},
    {"nombre": "Pesca", "lat": 5.562, "lng": -73.050},
    {"nombre": "Pisba", "lat": 5.724, "lng": -72.500},
    {"nombre": "Puerto Boyacá", "lat": 5.978, "lng": -74.589},
    {"nombre": "Quípama", "lat": 5.520, "lng": -74.177},
    {"nombre": "Ramiriquí", "lat": 5.400, "lng": -73.335},
    {"nombre": "Ráquira", "lat": 5.537, "lng": -73.633},
    {"nombre": "Rondón", "lat": 5.356, "lng": -73.198},
    {"nombre": "Saboyá", "lat": 5.695, "lng": -73.767},
    {"nombre": "Sáchica", "lat": 5.584, "lng": -73.544},
    {"nombre": "Samacá", "lat": 5.491, "lng": -73.487},
    {"nombre": "San Eduardo", "lat": 5.214, "lng": -73.083},
    {"nombre": "San José de Pare", "lat": 6.019, "lng": -73.543},
    {"nombre": "San Luis de Gaceno", "lat": 4.822, "lng": -73.167},
    {"nombre": "San Mateo", "lat": 6.400, "lng": -72.550},
    {"nombre": "San Miguel de Sema", "lat": 5.518, "lng": -73.720},
    {"nombre": "San Pablo de Borbur", "lat": 5.653, "lng": -74.066},
    {"nombre": "Santa María", "lat": 4.860, "lng": -73.263},
    {"nombre": "Santa Rosa de Viterbo", "lat": 5.877, "lng": -72.979},
    {"nombre": "Santa Sofía", "lat": 5.714, "lng": -73.601},
    {"nombre": "Santana", "lat": 6.058, "lng": -73.481},
    {"nombre": "Sativanorte", "lat": 6.146, "lng": -72.708},
    {"nombre": "Sativasur", "lat": 6.123, "lng": -72.729},
    {"nombre": "Siachoque", "lat": 5.513, "lng": -73.245},
    {"nombre": "Soatá", "lat": 6.333, "lng": -72.667},
    {"nombre": "Socha", "lat": 5.996, "lng": -72.690},
    {"nombre": "Socotá", "lat": 5.878, "lng": -72.636},
    {"nombre": "Sogamoso", "lat": 5.719, "lng": -72.933},
    {"nombre": "Somondoco", "lat": 4.984, "lng": -73.440},
    {"nombre": "Sora", "lat": 5.558, "lng": -73.500},
    {"nombre": "Soracá", "lat": 5.521, "lng": -73.334},
    {"nombre": "Sotaquirá", "lat": 5.704, "lng": -73.248},
    {"nombre": "Susacón", "lat": 6.226, "lng": -72.684},
    {"nombre": "Sutamarchán", "lat": 5.630, "lng": -73.620},
    {"nombre": "Sutatenza", "lat": 5.019, "lng": -73.450},
    {"nombre": "Tasco", "lat": 5.911, "lng": -72.780},
    {"nombre": "Tenza", "lat": 5.080, "lng": -73.416},
    {"nombre": "Tibaná", "lat": 5.315, "lng": -73.396},
    {"nombre": "Tibasosa", "lat": 5.750, "lng": -73.000},
    {"nombre": "Tinjacá", "lat": 5.590, "lng": -73.620},
    {"nombre": "Tipacoque", "lat": 6.419, "lng": -72.690},
    {"nombre": "Toca", "lat": 5.566, "lng": -73.183},
    {"nombre": "Togüí", "lat": 5.936, "lng": -73.515},
    {"nombre": "Tópaga", "lat": 5.769, "lng": -72.827},
    {"nombre": "Tota", "lat": 5.563, "lng": -72.983},
    {"nombre": "Tunja", "lat": 5.535, "lng": -73.367},
    {"nombre": "Tununguá", "lat": 5.734, "lng": -73.947},
    {"nombre": "Turmequé", "lat": 5.319, "lng": -73.490},
    {"nombre": "Tuta", "lat": 5.695, "lng": -73.282},
    {"nombre": "Tutazá", "lat": 6.118, "lng": -72.859},
    {"nombre": "Úmbita", "lat": 5.253, "lng": -73.458},
    {"nombre": "Ventaquemada", "lat": 5.376, "lng": -73.520},
    {"nombre": "Villa de Leyva", "lat": 5.635, "lng": -73.522},
    {"nombre": "Viracachá", "lat": 5.435, "lng": -73.242},
    {"nombre": "Zetaquira", "lat": 5.285, "lng": -73.168}
  ]
},

    {
  "id": 6,
  "departamento": "Caldas",
  "ciudades": [
    {"nombre": "Aguadas", "lat": 5.611, "lng": -75.454},
    {"nombre": "Anserma", "lat": 5.236, "lng": -75.791},
    {"nombre": "Aranzazu", "lat": 5.270, "lng": -75.491},
    {"nombre": "Belalcázar", "lat": 4.995, "lng": -75.812},
    {"nombre": "Chinchiná", "lat": 4.982, "lng": -75.603},
    {"nombre": "Filadelfia", "lat": 5.296, "lng": -75.561},
    {"nombre": "La Dorada", "lat": 5.448, "lng": -74.663},
    {"nombre": "La Merced", "lat": 5.400, "lng": -75.566},
    {"nombre": "Manizales", "lat": 5.070, "lng": -75.520},
    {"nombre": "Manzanares", "lat": 5.250, "lng": -75.156},
    {"nombre": "Marmato", "lat": 5.475, "lng": -75.601},
    {"nombre": "Marquetalia", "lat": 5.300, "lng": -75.055},
    {"nombre": "Marulanda", "lat": 5.284, "lng": -75.260},
    {"nombre": "Neira", "lat": 5.167, "lng": -75.520},
    {"nombre": "Norcasia", "lat": 5.565, "lng": -74.888},
    {"nombre": "Pácora", "lat": 5.528, "lng": -75.459},
    {"nombre": "Palestina", "lat": 5.016, "lng": -75.619},
    {"nombre": "Pensilvania", "lat": 5.384, "lng": -75.161},
    {"nombre": "Riosucio", "lat": 5.421, "lng": -75.703},
    {"nombre": "Risaralda", "lat": 5.167, "lng": -75.766},
    {"nombre": "Salamina", "lat": 5.407, "lng": -75.489},
    {"nombre": "Samaná", "lat": 5.413, "lng": -74.993},
    {"nombre": "San José", "lat": 5.082, "lng": -75.791},
    {"nombre": "Supía", "lat": 5.448, "lng": -75.653},
    {"nombre": "Victoria", "lat": 5.317, "lng": -74.912},
    {"nombre": "Villamaría", "lat": 5.043, "lng": -75.514},
    {"nombre": "Viterbo", "lat": 5.063, "lng": -75.871}
  ]
},

   {
  "id": 7,
  "departamento": "Caquetá",
  "ciudades": [
    {"nombre": "Albania", "lat": 1.330, "lng": -75.880},
    {"nombre": "Belén de los Andaquíes", "lat": 1.410, "lng": -75.870},
    {"nombre": "Cartagena del Chairá", "lat": 1.336, "lng": -74.844},
    {"nombre": "Curillo", "lat": 1.033, "lng": -75.917},
    {"nombre": "El Doncello", "lat": 1.676, "lng": -75.282},
    {"nombre": "El Paujil", "lat": 1.570, "lng": -75.329},
    {"nombre": "Florencia", "lat": 1.615, "lng": -75.606},
    {"nombre": "La Montañita", "lat": 1.489, "lng": -75.436},
    {"nombre": "Milán", "lat": 1.289, "lng": -75.510},
    {"nombre": "Morelia", "lat": 1.490, "lng": -75.723},
    {"nombre": "Puerto Rico", "lat": 1.910, "lng": -75.160},
    {"nombre": "San José del Fragua", "lat": 1.331, "lng": -75.973},
    {"nombre": "San Vicente del Caguán", "lat": 2.113, "lng": -74.766},
    {"nombre": "Solano", "lat": 0.698, "lng": -75.253},
    {"nombre": "Solita", "lat": 0.985, "lng": -75.621},
    {"nombre": "Valparaíso", "lat": 1.199, "lng": -75.707}
  ]
},

   {
  "id": 8,
  "departamento": "Casanare",
  "ciudades": [
    {"nombre": "Aguazul", "lat": 5.172, "lng": -72.547},
    {"nombre": "Chámeza", "lat": 5.210, "lng": -72.870},
    {"nombre": "Hato Corozal", "lat": 6.154, "lng": -71.766},
    {"nombre": "La Salina", "lat": 6.128, "lng": -72.334},
    {"nombre": "Maní", "lat": 4.817, "lng": -72.279},
    {"nombre": "Monterrey", "lat": 4.880, "lng": -72.895},
    {"nombre": "Nunchía", "lat": 5.635, "lng": -72.198},
    {"nombre": "Orocué", "lat": 4.791, "lng": -71.340},
    {"nombre": "Paz de Ariporo", "lat": 5.883, "lng": -71.887},
    {"nombre": "Pore", "lat": 5.673, "lng": -71.993},
    {"nombre": "Recetor", "lat": 5.230, "lng": -72.760},
    {"nombre": "Sabanalarga", "lat": 4.853, "lng": -73.042},
    {"nombre": "Sácama", "lat": 6.099, "lng": -72.247},
    {"nombre": "San Luis de Palenque", "lat": 5.421, "lng": -71.731},
    {"nombre": "Támara", "lat": 5.829, "lng": -72.162},
    {"nombre": "Tauramena", "lat": 5.012, "lng": -72.748},
    {"nombre": "Trinidad", "lat": 5.421, "lng": -71.663},
    {"nombre": "Villanueva", "lat": 4.606, "lng": -72.928},
    {"nombre": "Yopal", "lat": 5.346, "lng": -72.397}
  ]
},

   {
  "id": 9,
  "departamento": "Cauca",
  "ciudades": [
    {"nombre": "Almaguer", "lat": 1.914, "lng": -76.853},
    {"nombre": "Argelia", "lat": 2.258, "lng": -77.248},
    {"nombre": "Balboa", "lat": 2.041, "lng": -77.210},
    {"nombre": "Bolívar", "lat": 1.835, "lng": -76.972},
    {"nombre": "Buenos Aires", "lat": 3.009, "lng": -76.642},
    {"nombre": "Cajibío", "lat": 2.622, "lng": -76.573},
    {"nombre": "Caldono", "lat": 2.795, "lng": -76.484},
    {"nombre": "Caloto", "lat": 3.035, "lng": -76.407},
    {"nombre": "Corinto", "lat": 3.173, "lng": -76.262},
    {"nombre": "El Tambo", "lat": 2.451, "lng": -76.811},
    {"nombre": "Florencia", "lat": 1.687, "lng": -77.074},
    {"nombre": "Guachené", "lat": 3.133, "lng": -76.393},
    {"nombre": "Guapí", "lat": 2.570, "lng": -77.893},
    {"nombre": "Inzá", "lat": 2.549, "lng": -76.064},
    {"nombre": "Jambaló", "lat": 2.777, "lng": -76.324},
    {"nombre": "La Sierra", "lat": 2.192, "lng": -76.774},
    {"nombre": "La Vega", "lat": 2.001, "lng": -76.778},
    {"nombre": "López de Micay", "lat": 2.844, "lng": -77.255},
    {"nombre": "Mercaderes", "lat": 1.800, "lng": -77.170},
    {"nombre": "Miranda", "lat": 3.254, "lng": -76.229},
    {"nombre": "Morales", "lat": 2.754, "lng": -76.628},
    {"nombre": "Padilla", "lat": 3.223, "lng": -76.314},
    {"nombre": "Páez", "lat": 2.646, "lng": -75.992},
    {"nombre": "Patía", "lat": 2.068, "lng": -77.050},
    {"nombre": "Piamonte", "lat": 1.123, "lng": -76.321},
    {"nombre": "Piendamó", "lat": 2.635, "lng": -76.531},
    {"nombre": "Popayán", "lat": 2.444, "lng": -76.614},
    {"nombre": "Puerto Tejada", "lat": 3.232, "lng": -76.419},
    {"nombre": "Puracé", "lat": 2.333, "lng": -76.417},
    {"nombre": "Rosas", "lat": 2.260, "lng": -76.739},
    {"nombre": "San Sebastián", "lat": 1.838, "lng": -76.772},
    {"nombre": "Santa Rosa", "lat": 1.535, "lng": -76.542},
    {"nombre": "Santander de Quilichao", "lat": 3.010, "lng": -76.484},
    {"nombre": "Silvia", "lat": 2.619, "lng": -76.379},
    {"nombre": "Sotará", "lat": 2.165, "lng": -76.610},
    {"nombre": "Suárez", "lat": 2.953, "lng": -76.696},
    {"nombre": "Sucre", "lat": 2.037, "lng": -76.926},
    {"nombre": "Timbío", "lat": 2.352, "lng": -76.683},
    {"nombre": "Timbiquí", "lat": 2.770, "lng": -77.664},
    {"nombre": "Toribío", "lat": 2.954, "lng": -76.271},
    {"nombre": "Totoró", "lat": 2.511, "lng": -76.404},
    {"nombre": "Villa Rica", "lat": 3.173, "lng": -76.462}
  ]
},
{
  "id": 10,
  "departamento": "Cesar",
  "ciudades": [
    {"nombre": "Aguachica", "lat": 8.308, "lng": -73.617},
    {"nombre": "Agustín Codazzi", "lat": 10.034, "lng": -73.236},
    {"nombre": "Astrea", "lat": 9.498, "lng": -73.975},
    {"nombre": "Becerril", "lat": 9.704, "lng": -73.278},
    {"nombre": "Bosconia", "lat": 9.973, "lng": -73.890},
    {"nombre": "Chimichagua", "lat": 9.258, "lng": -73.814},
    {"nombre": "Chiriguaná", "lat": 9.362, "lng": -73.602},
    {"nombre": "Curumaní", "lat": 9.201, "lng": -73.542},
    {"nombre": "El Copey", "lat": 10.150, "lng": -73.965},
    {"nombre": "El Paso", "lat": 9.662, "lng": -73.747},
    {"nombre": "Gamarra", "lat": 8.322, "lng": -73.743},
    {"nombre": "González", "lat": 8.389, "lng": -73.382},
    {"nombre": "La Gloria (Cesar)", "lat": 8.617, "lng": -73.802},
    {"nombre": "La Jagua de Ibirico", "lat": 9.566, "lng": -73.334},
    {"nombre": "La Paz", "lat": 10.384, "lng": -73.173},
    {"nombre": "Manaure Balcón del Cesar", "lat": 10.392, "lng": -73.031},
    {"nombre": "Pailitas", "lat": 8.958, "lng": -73.626},
    {"nombre": "Pelaya", "lat": 8.688, "lng": -73.664},
    {"nombre": "Pueblo Bello", "lat": 10.415, "lng": -73.586},
    {"nombre": "Río de Oro", "lat": 8.293, "lng": -73.394},
    {"nombre": "San Alberto", "lat": 7.759, "lng": -73.394},
    {"nombre": "San Diego", "lat": 10.335, "lng": -73.182},
    {"nombre": "San Martín", "lat": 8.001, "lng": -73.509},
    {"nombre": "Tamalameque", "lat": 8.861, "lng": -73.813},
    {"nombre": "Valledupar", "lat": 10.464, "lng": -73.253}
  ]
},

    
   {
  "id": 11,
  "departamento": "Chocó",
  "ciudades": [
    {"nombre": "Acandí", "lat": 8.510, "lng": -77.278},
    {"nombre": "Alto Baudó", "lat": 5.507, "lng": -76.975},
    {"nombre": "Bagadó", "lat": 5.411, "lng": -76.415},
    {"nombre": "Bahía Solano", "lat": 6.226, "lng": -77.403},
    {"nombre": "Bajo Baudó", "lat": 4.949, "lng": -77.080},
    {"nombre": "Bojayá", "lat": 6.510, "lng": -76.975},
    {"nombre": "Cantón de San Pablo", "lat": 5.350, "lng": -76.725},
    {"nombre": "Cértegui", "lat": 5.370, "lng": -76.605},
    {"nombre": "Condoto", "lat": 5.094, "lng": -76.649},
    {"nombre": "El Atrato", "lat": 5.760, "lng": -76.635},
    {"nombre": "El Carmen de Atrato", "lat": 5.897, "lng": -76.152},
    {"nombre": "El Carmen del Darién", "lat": 7.100, "lng": -77.150},
    {"nombre": "Istmina", "lat": 5.154, "lng": -76.683},
    {"nombre": "Juradó", "lat": 7.106, "lng": -77.764},
    {"nombre": "Litoral de San Juan", "lat": 4.272, "lng": -77.354},
    {"nombre": "Lloró", "lat": 5.496, "lng": -76.549},
    {"nombre": "Medio Atrato", "lat": 5.820, "lng": -76.635},
    {"nombre": "Medio Baudó", "lat": 5.166, "lng": -76.970},
    {"nombre": "Medio San Juan", "lat": 4.985, "lng": -76.726},
    {"nombre": "Nóvita", "lat": 4.955, "lng": -76.605},
    {"nombre": "Nuquí", "lat": 5.710, "lng": -77.270},
    {"nombre": "Quibdó", "lat": 5.691, "lng": -76.661},
    {"nombre": "Río Iró", "lat": 5.185, "lng": -76.500},
    {"nombre": "Río Quito", "lat": 5.579, "lng": -76.733},
    {"nombre": "Riosucio", "lat": 7.437, "lng": -77.116},
    {"nombre": "San José del Palmar", "lat": 4.898, "lng": -76.236},
    {"nombre": "Sipí", "lat": 4.653, "lng": -76.642},
    {"nombre": "Tadó", "lat": 5.263, "lng": -76.560},
    {"nombre": "Unión Panamericana", "lat": 5.305, "lng": -76.640},
    {"nombre": "Unguía", "lat": 8.042, "lng": -77.092}
  ]
},

    {
  "id": 12,
  "departamento": "Cundinamarca",
  "ciudades": [
    {"nombre": "Agua de Dios", "lat": 4.376, "lng": -74.669},
    {"nombre": "Albán", "lat": 4.878, "lng": -74.437},
    {"nombre": "Anapoima", "lat": 4.560, "lng": -74.530},
    {"nombre": "Anolaima", "lat": 4.764, "lng": -74.471},
    {"nombre": "Apulo", "lat": 4.520, "lng": -74.590},
    {"nombre": "Arbeláez", "lat": 4.272, "lng": -74.415},
    {"nombre": "Beltrán", "lat": 4.800, "lng": -74.740},
    {"nombre": "Bituima", "lat": 4.872, "lng": -74.545},
    {"nombre": "Bogotá", "lat": 4.711, "lng": -74.072},
    {"nombre": "Bojacá", "lat": 4.734, "lng": -74.342},
    {"nombre": "Cabrera", "lat": 3.984, "lng": -74.484},
    {"nombre": "Cachipay", "lat": 4.733, "lng": -74.433},
    {"nombre": "Cajicá", "lat": 4.918, "lng": -74.027},
    {"nombre": "Caparrapí", "lat": 5.347, "lng": -74.490},
    {"nombre": "Cáqueza", "lat": 4.403, "lng": -73.945},
    {"nombre": "Carmen de Carupa", "lat": 5.350, "lng": -73.933},
    {"nombre": "Chaguaní", "lat": 4.948, "lng": -74.593},
    {"nombre": "Chía", "lat": 4.864, "lng": -74.053},
    {"nombre": "Chipaque", "lat": 4.443, "lng": -74.043},
    {"nombre": "Choachí", "lat": 4.529, "lng": -73.922},
    {"nombre": "Chocontá", "lat": 5.144, "lng": -73.685},
    {"nombre": "Cogua", "lat": 5.061, "lng": -73.978},
    {"nombre": "Cota", "lat": 4.809, "lng": -74.099},
    {"nombre": "Cucunubá", "lat": 5.252, "lng": -73.766},
    {"nombre": "El Colegio", "lat": 4.582, "lng": -74.448},
    {"nombre": "El Peñón", "lat": 5.250, "lng": -74.333},
    {"nombre": "El Rosal", "lat": 4.853, "lng": -74.266},
    {"nombre": "Facatativá", "lat": 4.813, "lng": -74.354},
    {"nombre": "Fómeque", "lat": 4.487, "lng": -73.900},
    {"nombre": "Fosca", "lat": 4.337, "lng": -73.938},
    {"nombre": "Funza", "lat": 4.716, "lng": -74.211},
    {"nombre": "Fúquene", "lat": 5.400, "lng": -73.766},
    {"nombre": "Fusagasugá", "lat": 4.337, "lng": -74.363},
    {"nombre": "Gachalá", "lat": 4.683, "lng": -73.520},
    {"nombre": "Gachancipá", "lat": 4.990, "lng": -73.880},
    {"nombre": "Gachetá", "lat": 4.817, "lng": -73.633},
    {"nombre": "Gama", "lat": 4.767, "lng": -73.617},
    {"nombre": "Girardot", "lat": 4.303, "lng": -74.797},
    {"nombre": "Granada", "lat": 4.520, "lng": -74.350},
    {"nombre": "Guachetá", "lat": 5.383, "lng": -73.692},
    {"nombre": "Guaduas", "lat": 5.067, "lng": -74.600},
    {"nombre": "Guasca", "lat": 4.817, "lng": -73.867},
    {"nombre": "Guataquí", "lat": 4.517, "lng": -74.783},
    {"nombre": "Guatavita", "lat": 4.937, "lng": -73.833},
    {"nombre": "Guayabal de Síquima", "lat": 4.877, "lng": -74.467},
    {"nombre": "Guayabetal", "lat": 4.215, "lng": -73.817},
    {"nombre": "Gutiérrez", "lat": 4.255, "lng": -74.002},
    {"nombre": "Jerusalén", "lat": 4.562, "lng": -74.700},
    {"nombre": "Junín", "lat": 4.783, "lng": -73.667},
    {"nombre": "La Calera", "lat": 4.720, "lng": -73.969},
    {"nombre": "La Mesa", "lat": 4.632, "lng": -74.467},
    {"nombre": "La Palma", "lat": 5.333, "lng": -74.400},
    {"nombre": "La Peña", "lat": 5.200, "lng": -74.400},
    {"nombre": "La Vega", "lat": 4.999, "lng": -74.333},
    {"nombre": "Lenguazaque", "lat": 5.307, "lng": -73.711},
    {"nombre": "Machetá", "lat": 5.083, "lng": -73.617},
    {"nombre": "Madrid", "lat": 4.733, "lng": -74.267},
    {"nombre": "Manta", "lat": 5.000, "lng": -73.550},
    {"nombre": "Medina", "lat": 4.510, "lng": -73.350},
    {"nombre": "Mosquera", "lat": 4.707, "lng": -74.231},
    {"nombre": "Nariño", "lat": 4.405, "lng": -74.827},
    {"nombre": "Nemocón", "lat": 5.066, "lng": -73.878},
    {"nombre": "Nilo", "lat": 4.306, "lng": -74.624},
    {"nombre": "Nimaima", "lat": 5.122, "lng": -74.383},
    {"nombre": "Nocaima", "lat": 5.067, "lng": -74.383},
    {"nombre": "Pacho", "lat": 5.137, "lng": -74.159},
    {"nombre": "Paime", "lat": 5.383, "lng": -74.150},
    {"nombre": "Pandi", "lat": 4.188, "lng": -74.490},
    {"nombre": "Paratebueno", "lat": 4.373, "lng": -73.215},
    {"nombre": "Pasca", "lat": 4.305, "lng": -74.305},
    {"nombre": "Puerto Salgar", "lat": 5.465, "lng": -74.655},
    {"nombre": "Pulí", "lat": 4.684, "lng": -74.717},
    {"nombre": "Quebradanegra", "lat": 5.120, "lng": -74.483},
    {"nombre": "Quetame", "lat": 4.332, "lng": -73.863},
    {"nombre": "Quipile", "lat": 4.750, "lng": -74.567},
    {"nombre": "Ricaurte", "lat": 4.280, "lng": -74.780},
    {"nombre": "San Antonio del Tequendama", "lat": 4.616, "lng": -74.352},
    {"nombre": "San Bernardo", "lat": 4.178, "lng": -74.418},
    {"nombre": "San Cayetano", "lat": 5.335, "lng": -74.052},
    {"nombre": "San Francisco", "lat": 4.973, "lng": -74.283},
    {"nombre": "San Juan de Rioseco", "lat": 4.847, "lng": -74.620},
    {"nombre": "Sasaima", "lat": 4.970, "lng": -74.430},
    {"nombre": "Sesquilé", "lat": 5.043, "lng": -73.800},
    {"nombre": "Sibaté", "lat": 4.490, "lng": -74.259},
    {"nombre": "Silvania", "lat": 4.403, "lng": -74.388},
    {"nombre": "Simijaca", "lat": 5.501, "lng": -73.850},
    {"nombre": "Soacha", "lat": 4.585, "lng": -74.214},
    {"nombre": "Sopó", "lat": 4.907, "lng": -73.940},
    {"nombre": "Subachoque", "lat": 4.937, "lng": -74.172},
    {"nombre": "Suesca", "lat": 5.102, "lng": -73.798},
    {"nombre": "Supatá", "lat": 5.061, "lng": -74.250},
    {"nombre": "Susa", "lat": 5.442, "lng": -73.816},
    {"nombre": "Sutatausa", "lat": 5.248, "lng": -73.849},
    {"nombre": "Tabio", "lat": 4.917, "lng": -74.100},
    {"nombre": "Tausa", "lat": 5.200, "lng": -73.883},
    {"nombre": "Tena", "lat": 4.660, "lng": -74.383},
    {"nombre": "Tenjo", "lat": 4.873, "lng": -74.147},
    {"nombre": "Tibacuy", "lat": 4.352, "lng": -74.456},
    {"nombre": "Tibirita", "lat": 5.050, "lng": -73.517},
    {"nombre": "Tocaima", "lat": 4.460, "lng": -74.635},
    {"nombre": "Tocancipá", "lat": 4.965, "lng": -73.913},
    {"nombre": "Topaipí", "lat": 5.335, "lng": -74.350},
    {"nombre": "Ubalá", "lat": 4.748, "lng": -73.533},
    {"nombre": "Ubaque", "lat": 4.484, "lng": -73.935},
    {"nombre": "Ubaté", "lat": 5.309, "lng": -73.816},
    {"nombre": "Une", "lat": 4.400, "lng": -74.030},
    {"nombre": "Útica", "lat": 5.185, "lng": -74.483},
    {"nombre": "Venecia", "lat": 4.088, "lng": -74.471},
    {"nombre": "Vergara", "lat": 5.118, "lng": -74.350},
    {"nombre": "Vianí", "lat": 4.873, "lng": -74.600},
    {"nombre": "Villagómez", "lat": 5.272, "lng": -74.200},
    {"nombre": "Villapinzón", "lat": 5.216, "lng": -73.600},
    {"nombre": "Villeta", "lat": 5.007, "lng": -74.470},
    {"nombre": "Viotá", "lat": 4.437, "lng": -74.525},
    {"nombre": "Yacopí", "lat": 5.459, "lng": -74.338},
    {"nombre": "Zipacón", "lat": 4.758, "lng": -74.383},
    {"nombre": "Zipaquirá", "lat": 5.022, "lng": -74.004}
  ]
},

    {
  "id": 13,
  "departamento": "Córdoba",
  "ciudades": [
    {"nombre": "Ayapel", "lat": 8.313, "lng": -75.145},
    {"nombre": "Buenavista", "lat": 8.185, "lng": -75.481},
    {"nombre": "Canalete", "lat": 8.676, "lng": -76.210},
    {"nombre": "Cereté", "lat": 8.885, "lng": -75.792},
    {"nombre": "Chimá", "lat": 9.146, "lng": -75.635},
    {"nombre": "Chinú", "lat": 9.105, "lng": -75.397},
    {"nombre": "Ciénaga de Oro", "lat": 8.874, "lng": -75.620},
    {"nombre": "Cotorra", "lat": 9.038, "lng": -75.789},
    {"nombre": "La Apartada", "lat": 8.052, "lng": -75.335},
    {"nombre": "Lorica", "lat": 9.236, "lng": -75.815},
    {"nombre": "Los Córdobas", "lat": 8.894, "lng": -76.354},
    {"nombre": "Momil", "lat": 9.237, "lng": -75.674},
    {"nombre": "Montelíbano", "lat": 7.982, "lng": -75.418},
    {"nombre": "Montería", "lat": 8.748, "lng": -75.881},
    {"nombre": "Moñitos", "lat": 9.246, "lng": -76.134},
    {"nombre": "Planeta Rica", "lat": 8.414, "lng": -75.588},
    {"nombre": "Pueblo Nuevo", "lat": 8.485, "lng": -75.509},
    {"nombre": "Puerto Escondido", "lat": 9.019, "lng": -76.264},
    {"nombre": "Puerto Libertador", "lat": 7.888, "lng": -75.671},
    {"nombre": "Purísima", "lat": 9.238, "lng": -75.724},
    {"nombre": "Sahagún", "lat": 8.946, "lng": -75.442},
    {"nombre": "San Andrés de Sotavento", "lat": 9.144, "lng": -75.508},
    {"nombre": "San Antero", "lat": 9.375, "lng": -75.759},
    {"nombre": "San Bernardo del Viento", "lat": 9.354, "lng": -75.958},
    {"nombre": "San Carlos", "lat": 8.800, "lng": -75.698},
    {"nombre": "San José de Uré", "lat": 7.787, "lng": -75.534},
    {"nombre": "San Pelayo", "lat": 8.959, "lng": -75.836},
    {"nombre": "Tierralta", "lat": 8.173, "lng": -76.059},
    {"nombre": "Tuchín", "lat": 9.187, "lng": -75.545},
    {"nombre": "Valencia", "lat": 8.255, "lng": -76.147}
  ]
},

  {
  "id": 14,
  "departamento": "Guainía",
  "ciudades": [
    {"nombre": "Inírida", "lat": 3.865, "lng": -67.923}
  ]
},
{
  "id": 15,
  "departamento": "Guaviare",
  "ciudades": [
    {"nombre": "Calamar", "lat": 1.958, "lng": -72.653},
    {"nombre": "El Retorno", "lat": 2.331, "lng": -72.628},
    {"nombre": "Miraflores", "lat": 1.336, "lng": -71.951},
    {"nombre": "San José del Guaviare", "lat": 2.573, "lng": -72.645}
  ]
},

    {
  "id": 16,
  "departamento": "Huila",
  "ciudades": [
    {"nombre": "Acevedo", "lat": 1.804, "lng": -75.896},
    {"nombre": "Agrado", "lat": 2.257, "lng": -75.772},
    {"nombre": "Aipe", "lat": 3.222, "lng": -75.236},
    {"nombre": "Algeciras", "lat": 2.525, "lng": -75.312},
    {"nombre": "Altamira", "lat": 2.063, "lng": -75.789},
    {"nombre": "Baraya", "lat": 3.153, "lng": -75.053},
    {"nombre": "Campoalegre", "lat": 2.684, "lng": -75.325},
    {"nombre": "Colombia", "lat": 3.376, "lng": -74.797},
    {"nombre": "El Pital", "lat": 2.266, "lng": -75.804},
    {"nombre": "Elías", "lat": 1.918, "lng": -75.938},
    {"nombre": "Garzón", "lat": 2.196, "lng": -75.628},
    {"nombre": "Gigante", "lat": 2.385, "lng": -75.545},
    {"nombre": "Guadalupe", "lat": 2.027, "lng": -75.756},
    {"nombre": "Hobo", "lat": 2.583, "lng": -75.450},
    {"nombre": "Íquira", "lat": 2.647, "lng": -75.634},
    {"nombre": "Isnos", "lat": 1.929, "lng": -76.236},
    {"nombre": "La Argentina", "lat": 2.196, "lng": -75.980},
    {"nombre": "La Plata", "lat": 2.395, "lng": -76.030},
    {"nombre": "Nátaga", "lat": 2.547, "lng": -75.783},
    {"nombre": "Neiva", "lat": 2.939, "lng": -75.281},
    {"nombre": "Oporapa", "lat": 1.736, "lng": -75.995},
    {"nombre": "Paicol", "lat": 2.449, "lng": -75.773},
    {"nombre": "Palermo", "lat": 2.891, "lng": -75.438},
    {"nombre": "Palestina", "lat": 1.722, "lng": -76.131},
    {"nombre": "Pitalito", "lat": 1.853, "lng": -76.050},
    {"nombre": "Rivera", "lat": 2.777, "lng": -75.255},
    {"nombre": "Saladoblanco", "lat": 1.874, "lng": -76.044},
    {"nombre": "San Agustín", "lat": 1.879, "lng": -76.268},
    {"nombre": "Santa María", "lat": 2.940, "lng": -75.554},
    {"nombre": "Suaza", "lat": 1.975, "lng": -75.791},
    {"nombre": "Tarqui", "lat": 2.120, "lng": -75.823},
    {"nombre": "Tello", "lat": 3.067, "lng": -75.141},
    {"nombre": "Teruel", "lat": 2.741, "lng": -75.568},
    {"nombre": "Tesalia", "lat": 2.485, "lng": -75.727},
    {"nombre": "Timaná", "lat": 1.973, "lng": -75.932},
    {"nombre": "Villavieja", "lat": 3.221, "lng": -75.218},
    {"nombre": "Yaguará", "lat": 2.664, "lng": -75.517}
  ]
},

   {
  "id": 17,
  "departamento": "La Guajira",
  "ciudades": [
    {"nombre": "Albania", "lat": 11.159, "lng": -72.594},
    {"nombre": "Barrancas", "lat": 10.959, "lng": -72.791},
    {"nombre": "Dibulla", "lat": 11.274, "lng": -73.307},
    {"nombre": "Distracción", "lat": 10.897, "lng": -72.885},
    {"nombre": "El Molino", "lat": 10.653, "lng": -72.924},
    {"nombre": "Fonseca", "lat": 10.885, "lng": -72.848},
    {"nombre": "Hatonuevo", "lat": 11.073, "lng": -72.766},
    {"nombre": "La Jagua del Pilar", "lat": 10.512, "lng": -73.071},
    {"nombre": "Maicao", "lat": 11.383, "lng": -72.241},
    {"nombre": "Manaure", "lat": 11.775, "lng": -72.444},
    {"nombre": "Riohacha", "lat": 11.544, "lng": -72.907},
    {"nombre": "San Juan del Cesar", "lat": 10.766, "lng": -73.003},
    {"nombre": "Uribia", "lat": 11.713, "lng": -72.265},
    {"nombre": "Urumita", "lat": 10.558, "lng": -72.999},
    {"nombre": "Villanueva", "lat": 10.605, "lng": -72.979}
  ]
},{
  "id": 18,
  "departamento": "Magdalena",
  "ciudades": [
    {"nombre": "Algarrobo", "lat": 10.186, "lng": -74.575},
    {"nombre": "Aracataca", "lat": 10.591, "lng": -74.189},
    {"nombre": "Ariguaní", "lat": 9.772, "lng": -74.003},
    {"nombre": "Cerro de San Antonio", "lat": 9.781, "lng": -74.868},
    {"nombre": "Chibolo", "lat": 9.143, "lng": -74.623},
    {"nombre": "Ciénega", "lat": 11.007, "lng": -74.247},
    {"nombre": "Concordia", "lat": 10.258, "lng": -74.833},
    {"nombre": "El Banco", "lat": 9.003, "lng": -73.976},
    {"nombre": "El Piñón", "lat": 10.392, "lng": -74.481},
    {"nombre": "El Retén", "lat": 10.613, "lng": -74.268},
    {"nombre": "Fundación", "lat": 10.520, "lng": -74.186},
    {"nombre": "Guamal", "lat": 9.144, "lng": -74.223},
    {"nombre": "Nueva Granada", "lat": 9.802, "lng": -74.391},
    {"nombre": "Pedraza", "lat": 10.188, "lng": -74.913},
    {"nombre": "Pijiño del Carmen", "lat": 9.325, "lng": -74.439},
    {"nombre": "Pivijay", "lat": 10.461, "lng": -74.618},
    {"nombre": "Plato", "lat": 9.787, "lng": -74.786},
    {"nombre": "Pueblo Viejo", "lat": 10.993, "lng": -74.286},
    {"nombre": "Remolino", "lat": 10.702, "lng": -74.712},
    {"nombre": "Sabanas de San Ángel", "lat": 9.350, "lng": -74.244},
    {"nombre": "Salamina", "lat": 10.490, "lng": -74.792},
    {"nombre": "San Sebastián de Buenavista", "lat": 9.240, "lng": -74.217},
    {"nombre": "San Zenón", "lat": 9.245, "lng": -74.501},
    {"nombre": "Santa Ana", "lat": 9.316, "lng": -74.570},
    {"nombre": "Santa Bárbara de Pinto", "lat": 9.359, "lng": -74.708},
    {"nombre": "Santa Marta", "lat": 11.240, "lng": -74.211},
    {"nombre": "Sitionuevo", "lat": 10.767, "lng": -74.720},
    {"nombre": "Tenerife", "lat": 9.898, "lng": -74.858},
    {"nombre": "Zapayán", "lat": 10.200, "lng": -74.716},
    {"nombre": "Zona Bananera", "lat": 10.767, "lng": -74.166}
  ]
},
{
  "id": 19,
  "departamento": "Meta",
  "ciudades": [
    {"nombre": "Acacías", "lat": 3.987, "lng": -73.757},
    {"nombre": "Barranca de Upía", "lat": 4.571, "lng": -72.965},
    {"nombre": "Cabuyaro", "lat": 4.281, "lng": -72.793},
    {"nombre": "Castilla la Nueva", "lat": 3.830, "lng": -73.690},
    {"nombre": "Cubarral", "lat": 3.793, "lng": -74.045},
    {"nombre": "Cumaral", "lat": 4.270, "lng": -73.484},
    {"nombre": "El Calvario", "lat": 4.350, "lng": -73.713},
    {"nombre": "El Castillo", "lat": 3.563, "lng": -73.785},
    {"nombre": "El Dorado", "lat": 3.752, "lng": -73.834},
    {"nombre": "Fuente de Oro", "lat": 3.462, "lng": -73.620},
    {"nombre": "Granada", "lat": 3.546, "lng": -73.707},
    {"nombre": "Guamal", "lat": 3.879, "lng": -73.763},
    {"nombre": "La Macarena", "lat": 2.184, "lng": -73.787},
    {"nombre": "La Uribe", "lat": 3.240, "lng": -74.360},
    {"nombre": "Lejanías", "lat": 3.527, "lng": -74.020},
    {"nombre": "Mapiripán", "lat": 2.892, "lng": -72.132},
    {"nombre": "Mesetas", "lat": 3.385, "lng": -74.045},
    {"nombre": "Puerto Concordia", "lat": 2.622, "lng": -72.757},
    {"nombre": "Puerto Gaitán", "lat": 4.312, "lng": -72.082},
    {"nombre": "Puerto Lleras", "lat": 3.022, "lng": -73.375},
    {"nombre": "Puerto López", "lat": 4.091, "lng": -72.959},
    {"nombre": "Puerto Rico", "lat": 2.943, "lng": -73.209},
    {"nombre": "Restrepo", "lat": 4.263, "lng": -73.564},
    {"nombre": "San Carlos de Guaroa", "lat": 3.901, "lng": -73.237},
    {"nombre": "San Juan de Arama", "lat": 3.372, "lng": -73.878},
    {"nombre": "San Juanito", "lat": 4.485, "lng": -73.675},
    {"nombre": "San Martín", "lat": 3.698, "lng": -73.705},
    {"nombre": "Villavicencio", "lat": 4.143, "lng": -73.626},
    {"nombre": "Vista Hermosa", "lat": 3.124, "lng": -73.750}
  ]
},
{
  "id": 20,
  "departamento": "Nariño",
  "ciudades": [
    {"nombre": "Aldana", "lat": 0.881, "lng": -77.703},
    {"nombre": "Ancuyá", "lat": 1.300, "lng": -77.516},
    {"nombre": "Arboleda", "lat": 1.508, "lng": -77.014},
    {"nombre": "Barbacoas", "lat": 1.671, "lng": -78.134},
    {"nombre": "Belén", "lat": 1.419, "lng": -77.004},
    {"nombre": "Buesaco", "lat": 1.384, "lng": -77.153},
    {"nombre": "Chachagüí", "lat": 1.364, "lng": -77.283},
    {"nombre": "Colón", "lat": 1.635, "lng": -76.974},
    {"nombre": "Consacá", "lat": 1.209, "lng": -77.469},
    {"nombre": "Contadero", "lat": 0.913, "lng": -77.548},
    {"nombre": "Córdoba", "lat": 0.868, "lng": -77.516},
    {"nombre": "Cuaspud", "lat": 0.873, "lng": -77.720},
    {"nombre": "Cumbal", "lat": 0.906, "lng": -77.792},
    {"nombre": "Cumbitara", "lat": 1.651, "lng": -77.574},
    {"nombre": "El Charco", "lat": 2.475, "lng": -78.111},
    {"nombre": "El Peñol", "lat": 1.456, "lng": -77.430},
    {"nombre": "El Rosario", "lat": 1.741, "lng": -77.335},
    {"nombre": "El Tablón", "lat": 1.417, "lng": -77.082},
    {"nombre": "El Tambo", "lat": 1.416, "lng": -77.403},
    {"nombre": "Francisco Pizarro", "lat": 2.154, "lng": -78.635},
    {"nombre": "Funes", "lat": 1.000, "lng": -77.452},
    {"nombre": "Guachucal", "lat": 0.963, "lng": -77.731},
    {"nombre": "Guaitarilla", "lat": 1.132, "lng": -77.532},
    {"nombre": "Gualmatán", "lat": 0.918, "lng": -77.566},
    {"nombre": "Iles", "lat": 0.965, "lng": -77.523},
    {"nombre": "Imués", "lat": 1.060, "lng": -77.494},
    {"nombre": "Ipiales", "lat": 0.827, "lng": -77.640},
    {"nombre": "La Cruz", "lat": 1.604, "lng": -76.972},
    {"nombre": "La Florida", "lat": 1.303, "lng": -77.406},
    {"nombre": "La Llanada", "lat": 1.474, "lng": -77.583},
    {"nombre": "La Tola", "lat": 2.406, "lng": -78.240},
    {"nombre": "La Unión", "lat": 1.604, "lng": -77.132},
    {"nombre": "Leiva", "lat": 1.932, "lng": -77.307},
    {"nombre": "Linares", "lat": 1.351, "lng": -77.522},
    {"nombre": "Los Andes", "lat": 1.505, "lng": -77.629},
    {"nombre": "Magüí Payán", "lat": 1.728, "lng": -77.700},
    {"nombre": "Mallama", "lat": 1.188, "lng": -77.872},
    {"nombre": "Mosquera", "lat": 2.513, "lng": -78.451},
    {"nombre": "Nariño", "lat": 1.289, "lng": -77.354},
    {"nombre": "Olaya Herrera", "lat": 2.250, "lng": -78.351},
    {"nombre": "Ospina", "lat": 1.036, "lng": -77.565},
    {"nombre": "Pasto", "lat": 1.214, "lng": -77.278},
    {"nombre": "Policarpa", "lat": 1.627, "lng": -77.456},
    {"nombre": "Potosí", "lat": 0.808, "lng": -77.573},
    {"nombre": "Providencia", "lat": 1.259, "lng": -77.612},
    {"nombre": "Puerres", "lat": 0.883, "lng": -77.533},
    {"nombre": "Pupiales", "lat": 0.869, "lng": -77.635},
    {"nombre": "Ricaurte", "lat": 1.247, "lng": -77.957},
    {"nombre": "Roberto Payán", "lat": 1.734, "lng": -78.366},
    {"nombre": "Samaniego", "lat": 1.338, "lng": -77.593},
    {"nombre": "San Bernardo", "lat": 1.515, "lng": -77.050},
    {"nombre": "San José de Albán", "lat": 1.482, "lng": -77.093},
    {"nombre": "San Lorenzo", "lat": 1.498, "lng": -77.216},
    {"nombre": "San Pablo", "lat": 1.666, "lng": -77.000},
    {"nombre": "San Pedro de Cartago", "lat": 1.553, "lng": -77.125},
    {"nombre": "Sandoná", "lat": 1.286, "lng": -77.471},
    {"nombre": "Santa Bárbara", "lat": 1.217, "lng": -77.480},
    {"nombre": "Santacruz", "lat": 1.522, "lng": -77.264},
    {"nombre": "Sapuyes", "lat": 1.044, "lng": -77.620},
    {"nombre": "Taminango", "lat": 1.571, "lng": -77.278},
    {"nombre": "Tangua", "lat": 1.094, "lng": -77.395},
    {"nombre": "Tumaco", "lat": 1.807, "lng": -78.764},
    {"nombre": "Túquerres", "lat": 1.090, "lng": -77.619},
    {"nombre": "Yacuanquer", "lat": 1.116, "lng": -77.401}
  ]
},
{
  "id": 21,
  "departamento": "Norte de Santander",
  "ciudades": [
    {"nombre": "Ábrego", "lat": 8.080, "lng": -73.220},
    {"nombre": "Arboledas", "lat": 7.641, "lng": -72.799},
    {"nombre": "Bochalema", "lat": 7.613, "lng": -72.644},
    {"nombre": "Bucarasica", "lat": 8.044, "lng": -72.868},
    {"nombre": "Cáchira", "lat": 7.741, "lng": -73.049},
    {"nombre": "Cácota", "lat": 7.266, "lng": -72.642},
    {"nombre": "Chinácota", "lat": 7.608, "lng": -72.602},
    {"nombre": "Chitagá", "lat": 7.137, "lng": -72.661},
    {"nombre": "Convención", "lat": 8.471, "lng": -73.335},
    {"nombre": "Cúcuta", "lat": 7.894, "lng": -72.503},
    {"nombre": "Cucutilla", "lat": 7.542, "lng": -72.771},
    {"nombre": "Durania", "lat": 7.713, "lng": -72.660},
    {"nombre": "El Carmen", "lat": 8.510, "lng": -73.448},
    {"nombre": "El Tarra", "lat": 8.574, "lng": -73.094},
    {"nombre": "El Zulia", "lat": 7.932, "lng": -72.603},
    {"nombre": "Gramalote", "lat": 7.918, "lng": -72.796},
    {"nombre": "Hacarí", "lat": 8.327, "lng": -73.150},
    {"nombre": "Herrán", "lat": 7.505, "lng": -72.483},
    {"nombre": "La Esperanza", "lat": 7.633, "lng": -73.300},
    {"nombre": "La Playa de Belén", "lat": 8.211, "lng": -73.225},
    {"nombre": "Labateca", "lat": 7.305, "lng": -72.495},
    {"nombre": "Los Patios", "lat": 7.837, "lng": -72.503},
    {"nombre": "Lourdes", "lat": 7.956, "lng": -72.831},
    {"nombre": "Mutiscua", "lat": 7.300, "lng": -72.730},
    {"nombre": "Ocaña", "lat": 8.245, "lng": -73.356},
    {"nombre": "Pamplona", "lat": 7.378, "lng": -72.652},
    {"nombre": "Pamplonita", "lat": 7.437, "lng": -72.637},
    {"nombre": "Puerto Santander", "lat": 8.363, "lng": -72.406},
    {"nombre": "Ragonvalia", "lat": 7.578, "lng": -72.478},
    {"nombre": "Salazar de Las Palmas", "lat": 7.769, "lng": -72.811},
    {"nombre": "San Calixto", "lat": 8.394, "lng": -73.209},
    {"nombre": "San Cayetano", "lat": 7.852, "lng": -72.623},
    {"nombre": "Santiago", "lat": 7.864, "lng": -72.717},
    {"nombre": "Santo Domingo de Silos", "lat": 7.201, "lng": -72.759},
    {"nombre": "Sardinata", "lat": 8.084, "lng": -72.800},
    {"nombre": "Teorama", "lat": 8.436, "lng": -73.290},
    {"nombre": "Tibú", "lat": 8.638, "lng": -72.734},
    {"nombre": "Toledo", "lat": 7.312, "lng": -72.483},
    {"nombre": "Villa Caro", "lat": 7.916, "lng": -72.971},
    {"nombre": "Villa del Rosario", "lat": 7.833, "lng": -72.474}
  ]
},
{
  "id": 22,
  "departamento": "Putumayo",
  "ciudades": [
    {"nombre": "Colón", "lat": 1.191, "lng": -76.974},
    {"nombre": "Mocoa", "lat": 1.152, "lng": -76.650},
    {"nombre": "Orito", "lat": 0.673, "lng": -76.872},
    {"nombre": "Puerto Asís", "lat": 0.510, "lng": -76.495},
    {"nombre": "Puerto Caicedo", "lat": 0.683, "lng": -76.604},
    {"nombre": "Puerto Guzmán", "lat": 0.963, "lng": -76.592},
    {"nombre": "Puerto Leguízamo", "lat": -0.193, "lng": -74.781},
    {"nombre": "San Francisco", "lat": 1.176, "lng": -76.878},
    {"nombre": "San Miguel", "lat": 0.342, "lng": -76.883},
    {"nombre": "Santiago", "lat": 1.147, "lng": -77.001},
    {"nombre": "Sibundoy", "lat": 1.203, "lng": -76.922},
    {"nombre": "Valle del Guamuez", "lat": 0.423, "lng": -76.918},
    {"nombre": "Villagarzón", "lat": 1.037, "lng": -76.617}
  ]
},
{
  "id": 23,
  "departamento": "Quindío",
  "ciudades": [
    {"nombre": "Armenia", "lat": 4.535, "lng": -75.675},
    {"nombre": "Buenavista", "lat": 4.364, "lng": -75.739},
    {"nombre": "Calarcá", "lat": 4.530, "lng": -75.640},
    {"nombre": "Circasia", "lat": 4.617, "lng": -75.636},
    {"nombre": "Córdoba", "lat": 4.394, "lng": -75.689},
    {"nombre": "Filandia", "lat": 4.675, "lng": -75.658},
    {"nombre": "Génova", "lat": 4.197, "lng": -75.786},
    {"nombre": "La Tebaida", "lat": 4.451, "lng": -75.787},
    {"nombre": "Montenegro", "lat": 4.566, "lng": -75.751},
    {"nombre": "Pijao", "lat": 4.334, "lng": -75.704},
    {"nombre": "Quimbaya", "lat": 4.623, "lng": -75.764},
    {"nombre": "Salento", "lat": 4.637, "lng": -75.570}
  ]
},
{
  "id": 24,
  "departamento": "Risaralda",
  "ciudades": [
    {"nombre": "Apía", "lat": 5.107, "lng": -75.940},
    {"nombre": "Balboa", "lat": 4.948, "lng": -75.958},
    {"nombre": "Belén de Umbría", "lat": 5.200, "lng": -75.868},
    {"nombre": "Dosquebradas", "lat": 4.829, "lng": -75.680},
    {"nombre": "Guática", "lat": 5.315, "lng": -75.799},
    {"nombre": "La Celia", "lat": 4.990, "lng": -76.003},
    {"nombre": "La Virginia", "lat": 4.899, "lng": -75.882},
    {"nombre": "Marsella", "lat": 4.937, "lng": -75.737},
    {"nombre": "Mistrató", "lat": 5.296, "lng": -75.883},
    {"nombre": "Pereira", "lat": 4.813, "lng": -75.696},
    {"nombre": "Pueblo Rico", "lat": 5.222, "lng": -76.021},
    {"nombre": "Quinchía", "lat": 5.339, "lng": -75.731},
    {"nombre": "Santa Rosa de Cabal", "lat": 4.868, "lng": -75.621},
    {"nombre": "Santuario", "lat": 5.078, "lng": -75.958}
  ]
},
{
  "id": 25,
  "departamento": "San Andrés y Providencia",
  "ciudades": [
    {"nombre": "Providencia y Santa Catalina Islas", "lat": 13.349, "lng": -81.370},
    {"nombre": "San Andrés", "lat": 12.584, "lng": -81.700}
  ]
},{
  "id": 26,
  "departamento": "Santander",
  "ciudades": [
    {"nombre": "Aguada", "lat": 6.158, "lng": -73.523},
    {"nombre": "Albania", "lat": 6.132, "lng": -72.593},
    {"nombre": "Aratoca", "lat": 6.695, "lng": -73.018},
    {"nombre": "Barbosa", "lat": 5.931, "lng": -73.617},
    {"nombre": "Barichara", "lat": 6.635, "lng": -73.222},
    {"nombre": "Barrancabermeja", "lat": 7.065, "lng": -73.854},
    {"nombre": "Betulia", "lat": 6.899, "lng": -73.284},
    {"nombre": "Bolívar", "lat": 6.267, "lng": -73.767},
    {"nombre": "Bucaramanga", "lat": 7.119, "lng": -73.125},
    {"nombre": "Cabrera", "lat": 6.587, "lng": -73.268},
    {"nombre": "California", "lat": 7.348, "lng": -72.976},
    {"nombre": "Capitanejo", "lat": 6.533, "lng": -72.700},
    {"nombre": "Carcasí", "lat": 6.627, "lng": -72.627},
    {"nombre": "Cepitá", "lat": 6.750, "lng": -72.967},
    {"nombre": "Cerrito", "lat": 6.850, "lng": -72.583},
    {"nombre": "Charalá", "lat": 6.286, "lng": -73.147},
    {"nombre": "Charta", "lat": 7.283, "lng": -72.967},
    {"nombre": "Chima", "lat": 6.342, "lng": -73.374},
    {"nombre": "Chipatá", "lat": 6.068, "lng": -73.637},
    {"nombre": "Cimitarra", "lat": 6.316, "lng": -74.048},
    {"nombre": "Concepción", "lat": 6.767, "lng": -72.699},
    {"nombre": "Confines", "lat": 6.355, "lng": -73.239},
    {"nombre": "Contratación", "lat": 6.294, "lng": -73.475},
    {"nombre": "Coromoro", "lat": 6.297, "lng": -73.040},
    {"nombre": "Curití", "lat": 6.615, "lng": -73.068},
    {"nombre": "El Carmen de Chucurí", "lat": 6.698, "lng": -73.511},
    {"nombre": "El Guacamayo", "lat": 6.333, "lng": -73.483},
    {"nombre": "El Peñón", "lat": 6.132, "lng": -73.815},
    {"nombre": "El Playón", "lat": 7.471, "lng": -73.203},
    {"nombre": "El Socorro", "lat": 6.468, "lng": -73.260},
    {"nombre": "Encino", "lat": 6.138, "lng": -73.098},
    {"nombre": "Enciso", "lat": 6.667, "lng": -72.700},
    {"nombre": "Florián", "lat": 5.805, "lng": -73.970},
    {"nombre": "Floridablanca", "lat": 7.065, "lng": -73.086},
    {"nombre": "Galán", "lat": 6.636, "lng": -73.295},
    {"nombre": "Gámbita", "lat": 5.950, "lng": -73.333},
    {"nombre": "Girón", "lat": 7.068, "lng": -73.168},
    {"nombre": "Guaca", "lat": 6.879, "lng": -72.855},
    {"nombre": "Guadalupe", "lat": 6.246, "lng": -73.417},
    {"nombre": "Guapotá", "lat": 6.316, "lng": -73.417},
    {"nombre": "Guavatá", "lat": 5.978, "lng": -73.699},
    {"nombre": "Güepsa", "lat": 6.021, "lng": -73.572},
    {"nombre": "Hato", "lat": 6.543, "lng": -73.323},
    {"nombre": "Jesús María", "lat": 5.875, "lng": -73.783},
    {"nombre": "Jordán", "lat": 6.740, "lng": -73.093},
    {"nombre": "La Belleza", "lat": 5.861, "lng": -73.965},
    {"nombre": "La Paz", "lat": 6.178, "lng": -73.589},
    {"nombre": "Landázuri", "lat": 6.218, "lng": -73.811},
    {"nombre": "Lebrija", "lat": 7.113, "lng": -73.220},
    {"nombre": "Los Santos", "lat": 6.752, "lng": -73.096},
    {"nombre": "Macaravita", "lat": 6.512, "lng": -72.600},
    {"nombre": "Málaga", "lat": 6.699, "lng": -72.733},
    {"nombre": "Matanza", "lat": 7.335, "lng": -73.018},
    {"nombre": "Mogotes", "lat": 6.475, "lng": -72.970},
    {"nombre": "Molagavita", "lat": 6.674, "lng": -72.537},
    {"nombre": "Ocamonte", "lat": 6.338, "lng": -73.118},
    {"nombre": "Oiba", "lat": 6.263, "lng": -73.298},
    {"nombre": "Onzaga", "lat": 6.345, "lng": -72.817},
    {"nombre": "Palmar", "lat": 6.540, "lng": -73.294},
    {"nombre": "Palmas del Socorro", "lat": 6.406, "lng": -73.285},
    {"nombre": "Páramo", "lat": 6.416, "lng": -73.170},
    {"nombre": "Piedecuesta", "lat": 6.988, "lng": -73.050},
    {"nombre": "Pinchote", "lat": 6.534, "lng": -73.172},
    {"nombre": "Puente Nacional", "lat": 5.877, "lng": -73.678},
    {"nombre": "Puerto Parra", "lat": 6.652, "lng": -74.057},
    {"nombre": "Puerto Wilches", "lat": 7.350, "lng": -73.900},
    {"nombre": "Rionegro", "lat": 7.250, "lng": -73.150},
    {"nombre": "Sabana de Torres", "lat": 7.392, "lng": -73.495},
    {"nombre": "San Andrés", "lat": 6.812, "lng": -72.849},
    {"nombre": "San Benito", "lat": 6.129, "lng": -73.507},
    {"nombre": "San Gil", "lat": 6.555, "lng": -73.133},
    {"nombre": "San Joaquín", "lat": 6.429, "lng": -73.150},
    {"nombre": "San José de Miranda", "lat": 6.661, "lng": -72.733},
    {"nombre": "San Miguel", "lat": 6.574, "lng": -72.644},
    {"nombre": "San Vicente de Chucurí", "lat": 6.880, "lng": -73.409},
    {"nombre": "Santa Bárbara", "lat": 6.992, "lng": -72.593},
    {"nombre": "Santa Helena del Opón", "lat": 6.339, "lng": -73.620},
    {"nombre": "Simacota", "lat": 6.441, "lng": -73.340},
    {"nombre": "Suaita", "lat": 6.107, "lng": -73.459},
    {"nombre": "Sucre", "lat": 6.198, "lng": -73.950},
    {"nombre": "Suratá", "lat": 7.368, "lng": -72.987},
    {"nombre": "Tona", "lat": 7.200, "lng": -72.967},
    {"nombre": "Valle de San José", "lat": 6.448, "lng": -73.143},
    {"nombre": "Vélez", "lat": 6.013, "lng": -73.673},
    {"nombre": "Vetas", "lat": 7.311, "lng": -72.866},
    {"nombre": "Villanueva", "lat": 6.673, "lng": -73.175},
    {"nombre": "Zapatoca", "lat": 6.815, "lng": -73.267}
  ]
},


    {  
        "id":27,
        "departamento":"Sucre",
        "ciudades":[  
            "Buenavista",
            "Caimito",
            "Chal\u00e1n",
            "Colos\u00f3",
            "Corozal",
            "Cove\u00f1as",
            "El Roble",
            "Galeras",
            "Guaranda",
            "La Uni\u00f3n",
            "Los Palmitos",
            "Majagual",
            "Morroa",
            "Ovejas",
            "Sampu\u00e9s",
            "San Antonio de Palmito",
            "San Benito Abad",
            "San Juan de Betulia",
            "San Marcos",
            "San Onofre",
            "San Pedro",
            "Sinc\u00e9",
            "Sincelejo",
            "Sucre",
            "Tol\u00fa",
            "Tol\u00fa Viejo"
        ]
    },
    {  
        "id":28,
        "departamento":"Tolima",
        "ciudades":[  
            "Alpujarra",
            "Alvarado",
            "Ambalema",
            "Anzo\u00e1tegui",
            "Armero",
            "Ataco",
            "Cajamarca",
            "Carmen de Apical\u00e1",
            "Casabianca",
            "Chaparral",
            "Coello",
            "Coyaima",
            "Cunday",
            "Dolores",
            "El Espinal",
            "Fal\u00e1n",
            "Flandes",
            "Fresno",
            "Guamo",
            "Herveo",
            "Honda",
            "Ibagu\u00e9",
            "Icononzo",
            "L\u00e9rida",
            "L\u00edbano",
            "Mariquita",
            "Melgar",
            "Murillo",
            "Natagaima",
            "Ortega",
            "Palocabildo",
            "Piedras",
            "Planadas",
            "Prado",
            "Purificaci\u00f3n",
            "Rioblanco",
            "Roncesvalles",
            "Rovira",
            "Salda\u00f1a",
            "San Antonio",
            "San Luis",
            "Santa Isabel",
            "Su\u00e1rez",
            "Valle de San Juan",
            "Venadillo",
            "Villahermosa",
            "Villarrica"
        ]
    },{
  "id": 27,
  "departamento": "Sucre",
  "ciudades": [
    {"nombre": "Buenavista", "lat": 9.318, "lng": -75.393},
    {"nombre": "Caimito", "lat": 8.789, "lng": -75.117},
    {"nombre": "Chalán", "lat": 9.544, "lng": -75.312},
    {"nombre": "Colosó", "lat": 9.494, "lng": -75.359},
    {"nombre": "Corozal", "lat": 9.317, "lng": -75.293},
    {"nombre": "Coveñas", "lat": 9.400, "lng": -75.683},
    {"nombre": "El Roble", "lat": 9.100, "lng": -75.200},
    {"nombre": "Galeras", "lat": 9.160, "lng": -75.050},
    {"nombre": "Guaranda", "lat": 8.470, "lng": -74.537},
    {"nombre": "La Unión", "lat": 8.857, "lng": -75.278},
    {"nombre": "Los Palmitos", "lat": 9.383, "lng": -75.267},
    {"nombre": "Majagual", "lat": 8.541, "lng": -74.627},
    {"nombre": "Morroa", "lat": 9.334, "lng": -75.305},
    {"nombre": "Ovejas", "lat": 9.520, "lng": -75.230},
    {"nombre": "Sampués", "lat": 9.182, "lng": -75.381},
    {"nombre": "San Antonio de Palmito", "lat": 9.333, "lng": -75.533},
    {"nombre": "San Benito Abad", "lat": 8.931, "lng": -75.026},
    {"nombre": "San Juan de Betulia", "lat": 9.273, "lng": -75.242},
    {"nombre": "San Marcos", "lat": 8.659, "lng": -75.128},
    {"nombre": "San Onofre", "lat": 9.735, "lng": -75.526},
    {"nombre": "San Pedro", "lat": 9.397, "lng": -75.064},
    {"nombre": "Sincé", "lat": 9.243, "lng": -75.146},
    {"nombre": "Sincelejo", "lat": 9.304, "lng": -75.397},
    {"nombre": "Sucre", "lat": 8.813, "lng": -74.723},
    {"nombre": "Tolú", "lat": 9.525, "lng": -75.583},
    {"nombre": "Tolú Viejo", "lat": 9.449, "lng": -75.439}
  ]
},{
  "id": 28,
  "departamento": "Tolima",
  "ciudades": [
    {"nombre": "Alpujarra", "lat": 3.390, "lng": -74.933},
    {"nombre": "Alvarado", "lat": 4.566, "lng": -74.950},
    {"nombre": "Ambalema", "lat": 4.784, "lng": -74.760},
    {"nombre": "Anzoátegui", "lat": 4.630, "lng": -75.100},
    {"nombre": "Armero", "lat": 5.030, "lng": -74.900},
    {"nombre": "Ataco", "lat": 3.593, "lng": -75.380},
    {"nombre": "Cajamarca", "lat": 4.438, "lng": -75.422},
    {"nombre": "Carmen de Apicalá", "lat": 4.150, "lng": -74.717},
    {"nombre": "Casabianca", "lat": 5.083, "lng": -75.117},
    {"nombre": "Chaparral", "lat": 3.720, "lng": -75.483},
    {"nombre": "Coello", "lat": 4.410, "lng": -74.883},
    {"nombre": "Coyaima", "lat": 3.800, "lng": -75.183},
    {"nombre": "Cunday", "lat": 4.070, "lng": -74.690},
    {"nombre": "Dolores", "lat": 3.533, "lng": -74.900},
    {"nombre": "El Espinal", "lat": 4.150, "lng": -74.883},
    {"nombre": "Falán", "lat": 5.117, "lng": -74.950},
    {"nombre": "Flandes", "lat": 4.250, "lng": -74.817},
    {"nombre": "Fresno", "lat": 5.150, "lng": -75.033},
    {"nombre": "Guamo", "lat": 4.030, "lng": -74.970},
    {"nombre": "Herveo", "lat": 5.080, "lng": -75.167},
    {"nombre": "Honda", "lat": 5.208, "lng": -74.736},
    {"nombre": "Ibagué", "lat": 4.438, "lng": -75.232},
    {"nombre": "Icononzo", "lat": 4.178, "lng": -74.533},
    {"nombre": "Lérida", "lat": 4.864, "lng": -74.910},
    {"nombre": "Líbano", "lat": 4.918, "lng": -75.063},
    {"nombre": "Mariquita", "lat": 5.210, "lng": -74.893},
    {"nombre": "Melgar", "lat": 4.204, "lng": -74.640},
    {"nombre": "Murillo", "lat": 4.875, "lng": -75.167},
    {"nombre": "Natagaima", "lat": 3.620, "lng": -75.100},
    {"nombre": "Ortega", "lat": 3.936, "lng": -75.217},
    {"nombre": "Palocabildo", "lat": 5.117, "lng": -75.017},
    {"nombre": "Piedras", "lat": 4.542, "lng": -74.872},
    {"nombre": "Planadas", "lat": 3.146, "lng": -75.645},
    {"nombre": "Prado", "lat": 3.750, "lng": -74.933},
    {"nombre": "Purificación", "lat": 3.865, "lng": -74.930},
    {"nombre": "Rioblanco", "lat": 3.540, "lng": -75.680},
    {"nombre": "Roncesvalles", "lat": 4.010, "lng": -75.600},
    {"nombre": "Rovira", "lat": 4.239, "lng": -75.241},
    {"nombre": "Saldaña", "lat": 3.930, "lng": -75.020},
    {"nombre": "San Antonio", "lat": 3.920, "lng": -75.480},
    {"nombre": "San Luis", "lat": 4.130, "lng": -75.090},
    {"nombre": "Santa Isabel", "lat": 4.712, "lng": -75.100},
    {"nombre": "Suárez", "lat": 4.045, "lng": -74.823},
    {"nombre": "Valle de San Juan", "lat": 4.183, "lng": -75.120},
    {"nombre": "Venadillo", "lat": 4.721, "lng": -74.930},
    {"nombre": "Villahermosa", "lat": 5.030, "lng": -75.150},
    {"nombre": "Villarrica", "lat": 3.930, "lng": -74.600}
  ]
},


   {
  "id": 29,
  "departamento": "Valle del Cauca",
  "ciudades": [
    {"nombre": "Alcalá", "lat": 4.674, "lng": -75.782},
    {"nombre": "Andalucía", "lat": 4.171, "lng": -76.166},
    {"nombre": "Ansermanuevo", "lat": 4.797, "lng": -75.995},
    {"nombre": "Argelia", "lat": 4.723, "lng": -76.122},
    {"nombre": "Bolívar", "lat": 4.338, "lng": -76.186},
    {"nombre": "Buenaventura", "lat": 3.877, "lng": -77.030},
    {"nombre": "Buga", "lat": 3.903, "lng": -76.298},
    {"nombre": "Bugalagrande", "lat": 4.213, "lng": -76.155},
    {"nombre": "Caicedonia", "lat": 4.332, "lng": -75.831},
    {"nombre": "Cali", "lat": 3.451, "lng": -76.532},
    {"nombre": "Calima", "lat": 3.933, "lng": -76.500},
    {"nombre": "Candelaria", "lat": 3.406, "lng": -76.350},
    {"nombre": "Cartago", "lat": 4.747, "lng": -75.911},
    {"nombre": "Dagua", "lat": 3.658, "lng": -76.688},
    {"nombre": "El Águila", "lat": 4.913, "lng": -76.042},
    {"nombre": "El Cairo", "lat": 4.762, "lng": -76.222},
    {"nombre": "El Cerrito", "lat": 3.685, "lng": -76.314},
    {"nombre": "El Dovio", "lat": 4.510, "lng": -76.237},
    {"nombre": "Florida", "lat": 3.325, "lng": -76.238},
    {"nombre": "Ginebra", "lat": 3.726, "lng": -76.267},
    {"nombre": "Guacarí", "lat": 3.765, "lng": -76.338},
    {"nombre": "Jamundí", "lat": 3.261, "lng": -76.543},
    {"nombre": "La Cumbre", "lat": 3.648, "lng": -76.571},
    {"nombre": "La Unión", "lat": 4.533, "lng": -76.103},
    {"nombre": "La Victoria", "lat": 4.521, "lng": -76.034},
    {"nombre": "Obando", "lat": 4.575, "lng": -75.972},
    {"nombre": "Palmira", "lat": 3.539, "lng": -76.303},
    {"nombre": "Pradera", "lat": 3.421, "lng": -76.243},
    {"nombre": "Restrepo", "lat": 3.825, "lng": -76.523},
    {"nombre": "Riofrío", "lat": 4.112, "lng": -76.288},
    {"nombre": "Roldanillo", "lat": 4.413, "lng": -76.153},
    {"nombre": "San Pedro", "lat": 3.994, "lng": -76.230},
    {"nombre": "Sevilla", "lat": 4.268, "lng": -75.935},
    {"nombre": "Toro", "lat": 4.609, "lng": -76.081},
    {"nombre": "Trujillo", "lat": 4.212, "lng": -76.319},
    {"nombre": "Tuluá", "lat": 4.085, "lng": -76.197},
    {"nombre": "Ulloa", "lat": 4.704, "lng": -75.737},
    {"nombre": "Versalles", "lat": 4.575, "lng": -76.200},
    {"nombre": "Vijes", "lat": 3.698, "lng": -76.442},
    {"nombre": "Yotoco", "lat": 3.868, "lng": -76.384},
    {"nombre": "Yumbo", "lat": 3.582, "lng": -76.495},
    {"nombre": "Zarzal", "lat": 4.394, "lng": -76.070}
  ]
},
{
  "id": 30,
  "departamento": "Vaupés",
  "ciudades": [
    {"nombre": "Carurú", "lat": 1.012, "lng": -71.296},
    {"nombre": "Mitú", "lat": 1.254, "lng": -70.235},
    {"nombre": "Taraira", "lat": -0.568, "lng": -69.635}
  ]
},
{
  "id": 31,
  "departamento": "Vichada",
  "ciudades": [
    {"nombre": "Cumaribo", "lat": 4.445, "lng": -69.798},
    {"nombre": "La Primavera", "lat": 5.490, "lng": -70.410},
    {"nombre": "Puerto Carreño", "lat": 6.185, "lng": -67.485},
    {"nombre": "Santa Rosalía", "lat": 5.125, "lng": -70.860}
  ]
}
]